station_id,name,station_code,service_provider_name,latitude,longitude,route_id,route_name,line_number,line_colour,colour_hex_code,region,odonym,namesake,opened
0,KL Sentral,KA01,Keretapi Tanah Melayu,3.134603,101.686567,KA,Seremban Line,1,Blue,#0000FF,Klang Valley,,,
1,Kuala Lumpur,KA02,Keretapi Tanah Melayu,3.1395126,101.6937889,KA,Seremban Line,1,Blue,#0000FF,Klang Valley,,,
2,Bank Negara,KA03,Keretapi Tanah Melayu,3.1545422,101.6930105,KA,Seremban Line,1,Blue,#0000FF,Klang Valley,,,
3,Putra,KA04,Keretapi Tanah Melayu,3.165005,101.691234,KA,Seremban Line,1,Blue,#0000FF,Klang Valley,,,
4,Mid Valley,KB01,Keretapi Tanah Melayu,3.1185282,101.6789854,KB,Seremban Line,1,Blue,#0000FF,Klang Valley,,,
5,Seputeh,KB02,Keretapi Tanah Melayu,3.1136966,101.6812992,KB,Seremban Line,1,Blue,#0000FF,Klang Valley,,,
6,Salak Selatan,KB03,Keretapi Tanah Melayu,3.098229,101.7053567,KB,Seremban Line,1,Blue,#0000FF,Klang Valley,,,
7,Bandar Tasik Selatan,KB04,Keretapi Tanah Melayu,3.076313,101.711115,KB,Seremban Line,1,Blue,#0000FF,Klang Valley,,,
8,Serdang,KB05,Keretapi Tanah Melayu,3.0231837,101.7159332,KB,Seremban Line,1,Blue,#0000FF,Klang Valley,,,
9,Kajang,KB06,Keretapi Tanah Melayu,2.983108,101.7905234,KB,Seremban Line,1,Blue,#0000FF,Klang Valley,,,
10,UKM,KB07,Keretapi Tanah Melayu,2.9396732,101.7878345,KB,Seremban Line,1,Blue,#0000FF,Klang Valley,,,
11,Bangi,KB08,Keretapi Tanah Melayu,2.903964,101.786039,KB,Seremban Line,1,Blue,#0000FF,Klang Valley,,,
12,Batang Benar,KB09,Keretapi Tanah Melayu,2.8303933,101.8268143,KB,Seremban Line,1,Blue,#0000FF,Klang Valley,,,
13,Nilai,KB10,Keretapi Tanah Melayu,2.802336,101.7998029,KB,Seremban Line,1,Blue,#0000FF,Klang Valley,,,
14,Labu,KB11,Keretapi Tanah Melayu,2.7540314,101.8266068,KB,Seremban Line,1,Blue,#0000FF,Klang Valley,,,
15,Tiroi,KB12,Keretapi Tanah Melayu,2.7413407,101.8719558,KB,Seremban Line,1,Blue,#0000FF,Klang Valley,,,
16,Seremban,KB13,Keretapi Tanah Melayu,2.7188308,101.9404842,KB,Seremban Line,1,Blue,#0000FF,Klang Valley,,,
17,Senawang,KB14,Keretapi Tanah Melayu,2.6906203,101.9717709,KB,Seremban Line,1,Blue,#0000FF,Klang Valley,,,
18,Sungai Gadut,KB15,Keretapi Tanah Melayu,2.6604935,101.9961253,KB,Seremban Line,1,Blue,#0000FF,Klang Valley,,,
19,Rembau,KB16,Keretapi Tanah Melayu,2.6604935,101.9961253,KB,Seremban Line,1,Blue,#0000FF,Klang Valley,,,
20,Pulau Sebang/Tampin,KB17,Keretapi Tanah Melayu,2.463626,102.2260987,KB,Seremban Line,1,Blue,#0000FF,Klang Valley,,,
21,Sentul,KC01,Keretapi Tanah Melayu,3.1823031,101.6887043,KC,Seremban Line,1,Blue,#0000FF,Klang Valley,,,
22,Batu Kentomen,KC02,Keretapi Tanah Melayu,3.1983357,101.6811632,KC,Seremban Line,1,Blue,#0000FF,Klang Valley,,,
23,Kampung Batu,KC03,Keretapi Tanah Melayu,3.2047963,101.675646,KC,Seremban Line,1,Blue,#0000FF,Klang Valley,,,
24,Taman Wahyu,KC04,Keretapi Tanah Melayu,3.2145439,101.6721822,KC,Seremban Line,1,Blue,#0000FF,Klang Valley,,,
25,Batu Caves,KC05,Keretapi Tanah Melayu,3.2378874,101.6811872,KC,Seremban Line,1,Blue,#0000FF,Klang Valley,,,
26,KL Sentral,KA01,Keretapi Tanah Melayu,3.134603,101.686567,KA,Port Klang Line,2,Red,#ff0000,Klang Valley,,,
27,Kuala Lumpur,KA02,Keretapi Tanah Melayu,3.1395804,101.693629,KA,Port Klang Line,2,Red,#ff0000,Klang Valley,,,
28,Bank Negara,KA03,Keretapi Tanah Melayu,3.1545691,101.6929903,KA,Port Klang Line,2,Red,#ff0000,Klang Valley,,,
29,Putra,KA04,Keretapi Tanah Melayu,3.165005,101.691234,KA,Port Klang Line,2,Red,#ff0000,Klang Valley,,,
30,Segambut,KA05,Keretapi Tanah Melayu,3.1864391,101.6642105,KA,Port Klang Line,2,Red,#ff0000,Klang Valley,,,
31,Kepong,KA06,Keretapi Tanah Melayu,3.20281,101.6374,KA,Port Klang Line,2,Red,#ff0000,Klang Valley,,,
32,Kepong Sentral,KA07,Keretapi Tanah Melayu,3.2086928,101.6285123,KA,Port Klang Line,2,Red,#ff0000,Klang Valley,,,
33,Sungai Buloh,KA08,Keretapi Tanah Melayu,3.206204,101.580781,KA,Port Klang Line,2,Red,#ff0000,Klang Valley,,,
34,Kuang,KA09,Keretapi Tanah Melayu,3.25826,101.55473,KA,Port Klang Line,2,Red,#ff0000,Klang Valley,,,
35,Rawang,KA10,Keretapi Tanah Melayu,3.31885,101.57498,KA,Port Klang Line,2,Red,#ff0000,Klang Valley,,,
36,Serendah,KA11,Keretapi Tanah Melayu,3.3760667,101.6144481,KA,Port Klang Line,2,Red,#ff0000,Klang Valley,,,
37,Batang Kali,KA12,Keretapi Tanah Melayu,3.4683857,101.6377519,KA,Port Klang Line,2,Red,#ff0000,Klang Valley,,,
38,Rasa,KA13,Keretapi Tanah Melayu,3.5003142,101.6341973,KA,Port Klang Line,2,Red,#ff0000,Klang Valley,,,
39,Kuala Kubu Bharu,KA14,Keretapi Tanah Melayu,3.5532917,101.6395744,KA,Port Klang Line,2,Red,#ff0000,Klang Valley,,,
40,Tanjung Malim,KA15,Keretapi Tanah Melayu,3.6847038,101.5182181,KA,Port Klang Line,2,Red,#ff0000,Klang Valley,,,
41,Abdullah Hukum,KD01,Keretapi Tanah Melayu,3.118735,101.672897,KD,Port Klang Line,2,Red,#ff0000,Klang Valley,,,
42,Angkasapuri,KD02,Keretapi Tanah Melayu,3.1135063,101.6732256,KD,Port Klang Line,2,Red,#ff0000,Klang Valley,,,
43,Pantai Dalam,KD03,Keretapi Tanah Melayu,3.0956045,101.6700133,KD,Port Klang Line,2,Red,#ff0000,Klang Valley,,,
44,Petaling,KD04,Keretapi Tanah Melayu,3.0862146,101.6641499,KD,Port Klang Line,2,Red,#ff0000,Klang Valley,,,
45,Jalan Templer,KD05,Keretapi Tanah Melayu,3.08353,101.656641,KD,Port Klang Line,2,Red,#ff0000,Klang Valley,,,
46,Kampung Dato Harun,KD06,Keretapi Tanah Melayu,3.084461,101.6322709,KD,Port Klang Line,2,Red,#ff0000,Klang Valley,,,
47,Seri Setia,KD07,Keretapi Tanah Melayu,3.0845398,101.6218982,KD,Port Klang Line,2,Red,#ff0000,Klang Valley,,,
48,Setia Jaya,KD08,Keretapi Tanah Melayu,3.0831687,101.6114441,KD,Port Klang Line,2,Red,#ff0000,Klang Valley,,,
49,Subang Jaya,KD09,Keretapi Tanah Melayu,3.08466,101.588127,KD,Port Klang Line,2,Red,#ff0000,Klang Valley,,,
50,Batu Tiga,KD10,Keretapi Tanah Melayu,3.075857,101.559779,KD,Port Klang Line,2,Red,#ff0000,Klang Valley,,,
51,Shah Alam,KD11,Keretapi Tanah Melayu,3.0564286,101.5251133,KD,Port Klang Line,2,Red,#ff0000,Klang Valley,,,
52,Padang Jawa,KD12,Keretapi Tanah Melayu,3.0523254,101.4927002,KD,Port Klang Line,2,Red,#ff0000,Klang Valley,,,
53,Bukit Badak,KD13,Keretapi Tanah Melayu,3.0359966,101.470249,KD,Port Klang Line,2,Red,#ff0000,Klang Valley,,,
54,Klang,KD14,Keretapi Tanah Melayu,3.042951,101.449642,KD,Port Klang Line,2,Red,#ff0000,Klang Valley,,,
55,Teluk Pulai,KD15,Keretapi Tanah Melayu,3.0408108,101.4321487,KD,Port Klang Line,2,Red,#ff0000,Klang Valley,,,
56,Teluk Gadong,KD16,Keretapi Tanah Melayu,3.03389,101.42491,KD,Port Klang Line,2,Red,#ff0000,Klang Valley,,,
57,Kampung Raja Uda,KD17,Keretapi Tanah Melayu,3.02016,101.41028,KD,Port Klang Line,2,Red,#ff0000,Klang Valley,,,
58,Jalan Kastam,KD18,Keretapi Tanah Melayu,3.013,101.4026,KD,Port Klang Line,2,Red,#ff0000,Klang Valley,,,
59,Port Klang,KD19,Keretapi Tanah Melayu,2.999459,101.391373,KD,Port Klang Line,2,Red,#ff0000,Klang Valley,,,
60,Sentul Timur,AG1,Rapid KL,3.185821,101.695335,AG,Ampang Line,3,Orange,#fe8e10,Klang Valley,,,
61,Pudu,AG10,Rapid KL,3.13492,101.712011,AG,Ampang Line,3,Orange,#fe8e10,Klang Valley,,,
62,Chan Sow Lin,AG11,Rapid KL,3.128025,101.715546,AG,Ampang Line,3,Orange,#fe8e10,Klang Valley,,,
63,Miharja,AG12,Rapid KL,3.120931,101.717861,AG,Ampang Line,3,Orange,#fe8e10,Klang Valley,,,
64,Maluri,AG13,Rapid KL,3.123276,101.726946,AG,Ampang Line,3,Orange,#fe8e10,Klang Valley,,,
65,Pandan Jaya,AG14,Rapid KL,3.130258,101.738991,AG,Ampang Line,3,Orange,#fe8e10,Klang Valley,,,
66,Pandan Indah,AG15,Rapid KL,3.134827,101.746748,AG,Ampang Line,3,Orange,#fe8e10,Klang Valley,,,
67,Cempaka,AG16,Rapid KL,3.138458,101.752945,AG,Ampang Line,3,Orange,#fe8e10,Klang Valley,,,
68,Cahaya,AG17,Rapid KL,3.140643,101.756607,AG,Ampang Line,3,Orange,#fe8e10,Klang Valley,,,
69,Ampang,AG18,Rapid KL,3.150512,101.760127,AG,Ampang Line,3,Orange,#fe8e10,Klang Valley,,,
70,Sentul,AG2,Rapid KL,3.178591,101.69551,AG,Ampang Line,3,Orange,#fe8e10,Klang Valley,,,
71,Titiwangsa,AG3,Rapid KL,3.173591,101.695273,AG,Ampang Line,3,Orange,#fe8e10,Klang Valley,,,
72,PWTC,AG4,Rapid KL,3.166563,101.693594,AG,Ampang Line,3,Orange,#fe8e10,Klang Valley,,,
73,Sultan Ismail,AG5,Rapid KL,3.161185,101.694127,AG,Ampang Line,3,Orange,#fe8e10,Klang Valley,,,
74,Bandaraya,AG6,Rapid KL,3.155548,101.694406,AG,Ampang Line,3,Orange,#fe8e10,Klang Valley,,,
75,Masjid Jamek,AG7,Rapid KL,3.149462,101.696396,AG,Ampang Line,3,Orange,#fe8e10,Klang Valley,,,
76,Plaza Rakyat,AG8,Rapid KL,3.144264,101.702054,AG,Ampang Line,3,Orange,#fe8e10,Klang Valley,,,
77,Hang Tuah,AG9,Rapid KL,3.139843,101.706133,AG,Ampang Line,3,Orange,#fe8e10,Klang Valley,,,
78,Sentul Timur,SP1,Rapid KL,3.185821,101.695335,SP,Sri Petaling Line,4,Maroon,#721422,Klang Valley,,,
79,Pudu,SP10,Rapid KL,3.13492,101.712011,SP,Sri Petaling Line,4,Maroon,#721422,Klang Valley,,,
80,Chan Sow Lin,SP11,Rapid KL,3.128025,101.715546,SP,Sri Petaling Line,4,Maroon,#721422,Klang Valley,,,
81,Cheras,SP12,Rapid KL,3.112747,101.714213,SP,Sri Petaling Line,4,Maroon,#721422,Klang Valley,,,
82,Salak Selatan,SP13,Rapid KL,3.102009,101.706273,SP,Sri Petaling Line,4,Maroon,#721422,Klang Valley,,,
83,Bandar Tun Razak,SP14,Rapid KL,3.089626,101.712414,SP,Sri Petaling Line,4,Maroon,#721422,Klang Valley,,,
84,Bandar Tasik Selatan,SP15,Rapid KL,3.076067,101.711311,SP,Sri Petaling Line,4,Maroon,#721422,Klang Valley,,,
85,Sungai Besi,SP16,Rapid KL,3.063949,101.707987,SP,Sri Petaling Line,4,Maroon,#721422,Klang Valley,,,
86,Bukit Jalil,SP17,Rapid KL,3.058148,101.692216,SP,Sri Petaling Line,4,Maroon,#721422,Klang Valley,,,
87,Sri Petaling,SP18,Rapid KL,3.061533,101.687067,SP,Sri Petaling Line,4,Maroon,#721422,Klang Valley,,,
88,Awan Besar,SP19,Rapid KL,3.062094,101.670606,SP,Sri Petaling Line,4,Maroon,#721422,Klang Valley,,,
89,Sentul,SP2,Rapid KL,3.178591,101.69551,SP,Sri Petaling Line,4,Maroon,#721422,Klang Valley,,,
90,Muhibbah,SP20,Rapid KL,3.061934,101.662791,SP,Sri Petaling Line,4,Maroon,#721422,Klang Valley,,,
91,Alam Sutera,SP21,Rapid KL,3.054838,101.656693,SP,Sri Petaling Line,4,Maroon,#721422,Klang Valley,,,
92,Kinrara,SP22,Rapid KL,3.050456,101.644155,SP,Sri Petaling Line,4,Maroon,#721422,Klang Valley,,,
93,Ioi Puchong Jaya,SP24,Rapid KL,3.048131,101.620982,SP,Sri Petaling Line,4,Maroon,#721422,Klang Valley,,,
94,Pusat Bandar Puchong,SP25,Rapid KL,3.033284,101.61612,SP,Sri Petaling Line,4,Maroon,#721422,Klang Valley,,,
95,Taman Perindustrian Puchong (TPP),SP26,Rapid KL,3.022811,101.613433,SP,Sri Petaling Line,4,Maroon,#721422,Klang Valley,,,
96,Bandar Puteri,SP27,Rapid KL,3.017065,101.612829,SP,Sri Petaling Line,4,Maroon,#721422,Klang Valley,,,
97,Puchong Perdana,SP28,Rapid KL,3.007852,101.605253,SP,Sri Petaling Line,4,Maroon,#721422,Klang Valley,,,
98,Puchong Prima,SP29,Rapid KL,2.999892,101.596738,SP,Sri Petaling Line,4,Maroon,#721422,Klang Valley,,,
99,Titiwangsa,SP3,Rapid KL,3.173591,101.695273,SP,Sri Petaling Line,4,Maroon,#721422,Klang Valley,,,
100,Putra Heights,SP31,Rapid KL,2.995969,101.575544,SP,Sri Petaling Line,4,Maroon,#721422,Klang Valley,,,
101,PWTC,SP4,Rapid KL,3.166563,101.693594,SP,Sri Petaling Line,4,Maroon,#721422,Klang Valley,,,
102,Sultan Ismail,SP5,Rapid KL,3.161185,101.694127,SP,Sri Petaling Line,4,Maroon,#721422,Klang Valley,,,
103,Bandaraya,SP6,Rapid KL,3.155548,101.694406,SP,Sri Petaling Line,4,Maroon,#721422,Klang Valley,,,
104,Masjid Jamek,SP7,Rapid KL,3.149462,101.696396,SP,Sri Petaling Line,4,Maroon,#721422,Klang Valley,,,
105,Plaza Rakyat,SP8,Rapid KL,3.144264,101.702054,SP,Sri Petaling Line,4,Maroon,#721422,Klang Valley,,,
106,Hang Tuah,SP9,Rapid KL,3.139843,101.706133,SP,Sri Petaling Line,4,Maroon,#721422,Klang Valley,,,
107,Gombak,KJ1,Rapid KL,3.231206,101.724429,KJ,Kelana Jaya Line,5,Ruby,#e0115f,Klang Valley,,,
108,KLCC,KJ10,Rapid KL,3.158935,101.713287,KJ,Kelana Jaya Line,5,Ruby,#e0115f,Klang Valley,,,
109,Kampung Baru,KJ11,Rapid KL,3.161386,101.706608,KJ,Kelana Jaya Line,5,Ruby,#e0115f,Klang Valley,,,
110,Dang Wangi,KJ12,Rapid KL,3.156942,101.701975,KJ,Kelana Jaya Line,5,Ruby,#e0115f,Klang Valley,,,
111,Masjid Jamek,KJ13,Rapid KL,3.149714,101.696815,KJ,Kelana Jaya Line,5,Ruby,#e0115f,Klang Valley,,,
112,Pasar Seni,KJ14,Rapid KL,3.142439,101.69531,KJ,Kelana Jaya Line,5,Ruby,#e0115f,Klang Valley,,,
113,KL Sentral,KJ15,Rapid KL,3.134067,101.686535,KJ,Kelana Jaya Line,5,Ruby,#e0115f,Klang Valley,,,
114,Bangsar,KJ16,Rapid KL,3.127588,101.679062,KJ,Kelana Jaya Line,5,Ruby,#e0115f,Klang Valley,,,
115,Abdullah Hukum,KJ17,Rapid KL,3.118735,101.672897,KJ,Kelana Jaya Line,5,Ruby,#e0115f,Klang Valley,,,
116,Kerinchi,KJ18,Rapid KL,3.115506,101.668572,KJ,Kelana Jaya Line,5,Ruby,#e0115f,Klang Valley,,,
117,Universiti,KJ19,Rapid KL,3.114616,101.661639,KJ,Kelana Jaya Line,5,Ruby,#e0115f,Klang Valley,,,
118,Taman Melati,KJ2,Rapid KL,3.219558,101.72197,KJ,Kelana Jaya Line,5,Ruby,#e0115f,Klang Valley,,,
119,Taman Jaya,KJ20,Rapid KL,3.104086,101.645248,KJ,Kelana Jaya Line,5,Ruby,#e0115f,Klang Valley,,,
120,Asia Jaya,KJ21,Rapid KL,3.104343,101.637695,KJ,Kelana Jaya Line,5,Ruby,#e0115f,Klang Valley,,,
121,Taman Paramount,KJ22,Rapid KL,3.104716,101.623192,KJ,Kelana Jaya Line,5,Ruby,#e0115f,Klang Valley,,,
122,Taman Bahagia,KJ23,Rapid KL,3.11079,101.612856,KJ,Kelana Jaya Line,5,Ruby,#e0115f,Klang Valley,,,
123,Kelana Jaya,KJ24,Rapid KL,3.112497,101.6043,KJ,Kelana Jaya Line,5,Ruby,#e0115f,Klang Valley,,,
124,Lembah Subang,KJ25,Rapid KL,3.112094,101.591034,KJ,Kelana Jaya Line,5,Ruby,#e0115f,Klang Valley,,,
125,Ara Damansara,KJ26,Rapid KL,3.108452,101.586644,KJ,Kelana Jaya Line,5,Ruby,#e0115f,Klang Valley,,,
126,Glenmarie,KJ27,Rapid KL,3.095902,101.590474,KJ,Kelana Jaya Line,5,Ruby,#e0115f,Klang Valley,,,
127,Subang Jaya,KJ28,Rapid KL,3.084862,101.58724,KJ,Kelana Jaya Line,5,Ruby,#e0115f,Klang Valley,,,
128,SS15,KJ29,Rapid KL,3.075895,101.586027,KJ,Kelana Jaya Line,5,Ruby,#e0115f,Klang Valley,,,
129,Wangsa Maju,KJ3,Rapid KL,3.205751,101.731796,KJ,Kelana Jaya Line,5,Ruby,#e0115f,Klang Valley,,,
130,SS18,KJ30,Rapid KL,3.066939,101.586167,KJ,Kelana Jaya Line,5,Ruby,#e0115f,Klang Valley,,,
131,USJ7,KJ31,Rapid KL,3.055025,101.591907,KJ,Kelana Jaya Line,5,Ruby,#e0115f,Klang Valley,,,
132,Taipan,KJ32,Rapid KL,3.047826,101.590201,KJ,Kelana Jaya Line,5,Ruby,#e0115f,Klang Valley,,,
133,Wawasan,KJ33,Rapid KL,3.034969,101.588194,KJ,Kelana Jaya Line,5,Ruby,#e0115f,Klang Valley,,,
134,USJ21,KJ34,Rapid KL,3.029735,101.581854,KJ,Kelana Jaya Line,5,Ruby,#e0115f,Klang Valley,,,
135,Alam Megah,KJ35,Rapid KL,3.023151,101.572029,KJ,Kelana Jaya Line,5,Ruby,#e0115f,Klang Valley,,,
136,Subang Alam,KJ36,Rapid KL,3.01007,101.57208,KJ,Kelana Jaya Line,5,Ruby,#e0115f,Klang Valley,,,
137,Putra Heights,KJ37,Rapid KL,2.996227,101.575462,KJ,Kelana Jaya Line,5,Ruby,#e0115f,Klang Valley,,,
138,Sri Rampai,KJ4,Rapid KL,3.199176,101.73747,KJ,Kelana Jaya Line,5,Ruby,#e0115f,Klang Valley,,,
139,Setiawangsa,KJ5,Rapid KL,3.17576,101.73584,KJ,Kelana Jaya Line,5,Ruby,#e0115f,Klang Valley,,,
140,Jelatek,KJ6,Rapid KL,3.167204,101.735344,KJ,Kelana Jaya Line,5,Ruby,#e0115f,Klang Valley,,,
141,Dato' Keramat,KJ7,Rapid KL,3.16509,101.73184,KJ,Kelana Jaya Line,5,Ruby,#e0115f,Klang Valley,,,
142,Damai,KJ8,Rapid KL,3.164406,101.724489,KJ,Kelana Jaya Line,5,Ruby,#e0115f,Klang Valley,,,
143,Ampang Park,KJ9,Rapid KL,3.159894,101.719017,KJ,Kelana Jaya Line,5,Ruby,#e0115f,Klang Valley,,,
144,KL Sentral,KE1,Express Rail Link,3.132675,101.687891,KE,KLIA Ekspres,6,Purple,#800080,Klang Valley,,,
145,Kuala Lumpur International Airport,KE2,Express Rail Link,2.7549259,101.7048248,KE,KLIA Ekspres,6,Purple,#800080,Klang Valley,,,
146,KLIA2,KE3,Express Rail Link,2.7445694,101.685081,KE,KLIA Ekspres,6,Purple,#800080,Klang Valley,,,
147,KL Sentral,KT1,Express Rail Link,3.132675,101.687891,KT,KLIA Transit,7,Teal,#139593,Klang Valley,,,
148,Bandar Tasik Selatan,KT2,Express Rail Link,3.076067,101.711311,KT,KLIA Transit,7,Teal,#139593,Klang Valley,,,
149,Putrajaya & Cyberjaya,KT3,Express Rail Link,2.9314193,101.6708369,KT,KLIA Transit,7,Teal,#139593,Klang Valley,,,
150,Salak Tinggi,KT4,Express Rail Link,2.8257973,101.7133911,KT,KLIA Transit,7,Teal,#139593,Klang Valley,,,
151,Kuala Lumpur International Airport,KT5,Express Rail Link,2.7549259,101.7048248,KT,KLIA Transit,7,Teal,#139593,Klang Valley,,,
152,KLIA2,KT6,Express Rail Link,2.7445694,101.685081,KT,KLIA Transit,7,Teal,#139593,Klang Valley,,,
153,KL Sentral,MR1,Rapid KL,3.132675,101.687891,MR,KL Monorail Line,8,Light Green,#7dba00,Klang Valley,,,
154,Chow Kit,MR10,Rapid KL,3.167394,101.698385,MR,KL Monorail Line,8,Light Green,#7dba00,Klang Valley,,,
155,Titiwangsa,MR11,Rapid KL,3.173204,101.695964,MR,KL Monorail Line,8,Light Green,#7dba00,Klang Valley,,,
156,Tun Sambanthan,MR2,Rapid KL,3.131452,101.690862,MR,KL Monorail Line,8,Light Green,#7dba00,Klang Valley,,,
157,Maharajalela,MR3,Rapid KL,3.138948,101.699203,MR,KL Monorail Line,8,Light Green,#7dba00,Klang Valley,,,
158,Hang Tuah,MR4,Rapid KL,3.140681,101.706037,MR,KL Monorail Line,8,Light Green,#7dba00,Klang Valley,,,
159,Imbi,MR5,Rapid KL,3.142812,101.709447,MR,KL Monorail Line,8,Light Green,#7dba00,Klang Valley,,,
160,Bukit Bintang,MR6,Rapid KL,3.146077,101.711499,MR,KL Monorail Line,8,Light Green,#7dba00,Klang Valley,,,
161,Raja Chulan,MR7,Rapid KL,3.150837,101.710442,MR,KL Monorail Line,8,Light Green,#7dba00,Klang Valley,,,
162,Bukit Nanas,MR8,Rapid KL,3.156244,101.704766,MR,KL Monorail Line,8,Light Green,#7dba00,Klang Valley,,,
163,Medan Tuanku,MR9,Rapid KL,3.159271,101.6989,MR,KL Monorail Line,8,Light Green,#7dba00,Klang Valley,,,
164,Kwasa Damansara,KG04,Rapid KL,3.17615,101.57205,KG,Kajang Line,9,Green,#008000,Klang Valley,,,
165,Kwasa Sentral,KG05,Rapid KL,3.169826,101.564913,KG,Kajang Line,9,Green,#008000,Klang Valley,,,
166,Kota Damansara,KG06,Rapid KL,3.15013,101.57869,KG,Kajang Line,9,Green,#008000,Klang Valley,,,
167,Surian,KG07,Rapid KL,3.14948,101.59392,KG,Kajang Line,9,Green,#008000,Klang Valley,,,
168,Mutiara Damansara,KG08,Rapid KL,3.1553,101.60908,KG,Kajang Line,9,Green,#008000,Klang Valley,,,
169,Bandar Utama,KG09,Rapid KL,3.146504,101.618798,KG,Kajang Line,9,Green,#008000,Klang Valley,,,
170,TTDI,KG10,Rapid KL,3.13613,101.63054,KG,Kajang Line,9,Green,#008000,Klang Valley,,,
171,Phileo Damansara,KG12,Rapid KL,3.129037,101.643153,KG,Kajang Line,9,Green,#008000,Klang Valley,,,
172,Pusat Bandar Damansara,KG13,Rapid KL,3.143323,101.662374,KG,Kajang Line,9,Green,#008000,Klang Valley,,,
173,Semantan,KG14,Rapid KL,3.150982,101.665292,KG,Kajang Line,9,Green,#008000,Klang Valley,,,
174,Muzium Negara,KG15,Rapid KL,3.13732,101.68734,KG,Kajang Line,9,Green,#008000,Klang Valley,,,
175,Pasar Seni,KG16,Rapid KL,3.14229,101.69556,KG,Kajang Line,9,Green,#008000,Klang Valley,,,
176,Merdeka,KG17,Rapid KL,3.14197,101.70205,KG,Kajang Line,9,Green,#008000,Klang Valley,,,
177,Bukit Bintang,KG18A,Rapid KL,3.1465,101.71095,KG,Kajang Line,9,Green,#008000,Klang Valley,,,
178,Tun Razak Exchange,KG20,Rapid KL,3.1424,101.72016,KG,Kajang Line,9,Green,#008000,Klang Valley,,,
179,Cochrane,KG21,Rapid KL,3.13283,101.72296,KG,Kajang Line,9,Green,#008000,Klang Valley,,,
180,Maluri,KG22,Rapid KL,3.12362,101.72781,KG,Kajang Line,9,Green,#008000,Klang Valley,,,
181,Taman Pertama,KG23,Rapid KL,3.11255,101.72937,KG,Kajang Line,9,Green,#008000,Klang Valley,,,
182,Taman Midah,KG24,Rapid KL,3.10451,101.73219,KG,Kajang Line,9,Green,#008000,Klang Valley,,,
183,Taman Mutiara,KG25,Rapid KL,3.09099,101.74045,KG,Kajang Line,9,Green,#008000,Klang Valley,,,
184,Taman Connaught,KG26,Rapid KL,3.07917,101.74522,KG,Kajang Line,9,Green,#008000,Klang Valley,,,
185,Taman Suntex,KG27,Rapid KL,3.07158,101.76355,KG,Kajang Line,9,Green,#008000,Klang Valley,,,
186,Sri Raya,KG28,Rapid KL,3.06227,101.7729,KG,Kajang Line,9,Green,#008000,Klang Valley,,,
187,Bandar Tun Hussien Onn,KG29,Rapid KL,3.04822,101.77511,KG,Kajang Line,9,Green,#008000,Klang Valley,,,
188,Batu 11 Cheras,KG30,Rapid KL,3.04134,101.77338,KG,Kajang Line,9,Green,#008000,Klang Valley,,,
189,Bukit Dukung,KG31,Rapid KL,3.02641,101.77107,KG,Kajang Line,9,Green,#008000,Klang Valley,,,
190,Sungai Jernih,KG33,Rapid KL,3.00095,101.78386,KG,Kajang Line,9,Green,#008000,Klang Valley,,,
191,Stadium Kajang,KG34,Rapid KL,2.99451,101.78634,KG,Kajang Line,9,Green,#008000,Klang Valley,,,
192,Kajang,KG35,Rapid KL,2.98278,101.79028,KG,Kajang Line,9,Green,#008000,Klang Valley,,,
193,KL Sentral,KS01,Keretapi Tanah Melayu,3.132675,101.687891,KS,Skypark Link,10,Brown,#A52A2A,Klang Valley,,,
194,Subang Jaya,KS02,Keretapi Tanah Melayu,3.08466,101.588127,KS,Skypark Link,10,Brown,#A52A2A,Klang Valley,,,
195,Terminal Skypark,KS03,Keretapi Tanah Melayu,3.13442,101.55543,KS,Skypark Link,10,Brown,#A52A2A,Klang Valley,,,
196,Sunway-Setia Jaya,SB1,Rapid Bus,3.08292,101.61228,SB,BRT Sunway Line,B1,Dark Green,#1E4D2B,Klang Valley,,,
197,Mentari,SB2,Rapid Bus,3.07613,101.61023,SB,BRT Sunway Line,B1,Dark Green,#1E4D2B,Klang Valley,,,
198,Sunway Lagoon,SB3,Rapid Bus,3.07065,101.61079,SB,BRT Sunway Line,B1,Dark Green,#1E4D2B,Klang Valley,,,
199,Sunmed,SB4,Rapid Bus,3.06554,101.60861,SB,BRT Sunway Line,B1,Dark Green,#1E4D2B,Klang Valley,,,
200,SunU Monash,SB5,Rapid Bus,3.0653,101.60161,SB,BRT Sunway Line,B1,Dark Green,#1E4D2B,Klang Valley,,,
201,South Quay-USJ1,SB6,Rapid Bus,3.06162,101.59681,SB,BRT Sunway Line,B1,Dark Green,#1E4D2B,Klang Valley,,,
202,USJ7,SB7,Rapid Bus,3.05525,101.59198,SB,BRT Sunway Line,B1,Dark Green,#1E4D2B,Klang Valley,,,
203,Sungai Buloh,PY04,Rapid KL,3.206333,101.581736,PY,Putrajaya Line,12,Yellow,#facd04,Klang Valley,,,
204,Kampung Selamat,PY03,Rapid KL,3.19727,101.5785,PY,Putrajaya Line,12,Yellow,#facd04,Klang Valley,,,
205,Kwasa Damansara,PY01,Rapid KL,3.17615,101.57205,PY,Putrajaya Line,12,Yellow,#facd04,Klang Valley,,,
206,Damansara Damai,PY05,Rapid KL,3.19976,101.59287,PY,Putrajaya Line,12,Yellow,#facd04,Klang Valley,,,
207,Sri Damansara Barat,PY06,Rapid KL,3.19822,101.60842,PY,Putrajaya Line,12,Yellow,#facd04,Klang Valley,,,
208,Sri Damansara Sentral,PY07,Rapid KL,3.19854,101.62113,PY,Putrajaya Line,12,Yellow,#facd04,Klang Valley,,,
209,Sri Damansara Timur,PY08,Rapid KL,3.20758,101.62859,PY,Putrajaya Line,12,Yellow,#facd04,Klang Valley,,,
210,Metro Prima,PY09,Rapid KL,3.20758,101.62859,PY,Putrajaya Line,12,Yellow,#facd04,Klang Valley,,,
211,Kepong Baru,PY10,Rapid KL,3.2116819,101.6481798,PY,Putrajaya Line,12,Yellow,#facd04,Klang Valley,,,
212,Jinjang,PY11,Rapid KL,3.20954,101.65579,PY,Putrajaya Line,12,Yellow,#facd04,Klang Valley,,,
213,Sri Delima,PY12,Rapid KL,3.2072,101.66556,PY,Putrajaya Line,12,Yellow,#facd04,Klang Valley,,,
214,Kampung Batu,PY13,Rapid KL,3.206,101.67514,PY,Putrajaya Line,12,Yellow,#facd04,Klang Valley,,,
215,Kentonmen,PY14,Rapid KL,3.19541,101.6796,PY,Putrajaya Line,12,Yellow,#facd04,Klang Valley,,,
216,Jalan Ipoh,PY15,Rapid KL,3.18934,101.68115,PY,Putrajaya Line,12,Yellow,#facd04,Klang Valley,,,
217,Sentul Barat,PY16,Rapid KL,3.17881,101.68516,PY,Putrajaya Line,12,Yellow,#facd04,Klang Valley,,,
218,Titiwangsa,PY17,Rapid KL,3.17446,101.69601,PY,Putrajaya Line,12,Yellow,#facd04,Klang Valley,,,
219,Hospital Kuala Lumpur,PY18,Rapid KL,3.17401,101.70172,PY,Putrajaya Line,12,Yellow,#facd04,Klang Valley,,,
220,Raja Uda,PY19,Rapid KL,3.16789,101.71093,PY,Putrajaya Line,12,Yellow,#facd04,Klang Valley,,,
221,Ampang Park,PY20,Rapid KL,3.16172,101.71797,PY,Putrajaya Line,12,Yellow,#facd04,Klang Valley,,,
222,Persiaran KLCC,PY21,Rapid KL,3.15691,101.71821,PY,Putrajaya Line,12,Yellow,#facd04,Klang Valley,,,
223,Conlay,PY22,Rapid KL,3.15069,101.71839,PY,Putrajaya Line,12,Yellow,#facd04,Klang Valley,,,
224,Tun Razak Exchange,PY23,Rapid KL,3.1428733,101.7199618,PY,Putrajaya Line,12,Yellow,#facd04,Klang Valley,,,
225,Chan Sow Lin,PY24,Rapid KL,3.12837,101.71659,PY,Putrajaya Line,12,Yellow,#facd04,Klang Valley,,,
226,Kuchai,PY27,Rapid KL,3.08962,101.6941,PY,Putrajaya Line,12,Yellow,#facd04,Klang Valley,,,
227,Taman Naga Emas,PY28,Rapid KL,3.07772,101.69952,PY,Putrajaya Line,12,Yellow,#facd04,Klang Valley,,,
228,Sungai Besi,PY29,Rapid KL,3.06383,101.70841,PY,Putrajaya Line,12,Yellow,#facd04,Klang Valley,,,
229,Serdang Raya Utara,PY31,Rapid KL,3.04177,101.70493,PY,Putrajaya Line,12,Yellow,#facd04,Klang Valley,,,
230,Serdang Raya Selatan,PY32,Rapid KL,3.02849,101.70749,PY,Putrajaya Line,12,Yellow,#facd04,Klang Valley,,,
231,Serdang Jaya,PY33,Rapid KL,3.0216,101.70893,PY,Putrajaya Line,12,Yellow,#facd04,Klang Valley,,,
232,UPM,PY34,Rapid KL,3.00848,101.70541,PY,Putrajaya Line,12,Yellow,#facd04,Klang Valley,,,
233,Taman Equine,PY36,Rapid KL,2.98932,101.67257,PY,Putrajaya Line,12,Yellow,#facd04,Klang Valley,,,
234,Putra Permai,PY37,Rapid KL,2.9831,101.66057,PY,Putrajaya Line,12,Yellow,#facd04,Klang Valley,,,
235,16 Sierra,PY38,Rapid KL,2.96528,101.65483,PY,Putrajaya Line,12,Yellow,#facd04,Klang Valley,,,
236,Cyberjaya Utara,PY39,Rapid KL,2.94924,101.65749,PY,Putrajaya Line,12,Yellow,#facd04,Klang Valley,,,
237,Cyberjaya City Centre,PY40,Rapid KL,2.93895,101.66563,PY,Putrajaya Line,12,Yellow,#facd04,Klang Valley,,,
238,Putrajaya Sentral,PY41,Rapid KL,2.93143,101.67147,PY,Putrajaya Line,12,Yellow,#facd04,Klang Valley,,,
239,Bandar Utama,JS1,Rapid KL,3.144418876,101.6181465,JS,LRT3,11,Sky Blue,#88cffa,Klang Valley,,,
240,Kayu Ara,JS2,Rapid KL,3.135428534,101.6170146,JS,LRT3,11,Sky Blue,#88cffa,Klang Valley,,,
241,BU11,JS3,Rapid KL,3.133471924,101.6049169,JS,LRT3,11,Sky Blue,#88cffa,Klang Valley,,,
242,Damansara Idaman,JS5,Rapid KL,3.122534158,101.5941505,JS,LRT3,11,Sky Blue,#88cffa,Klang Valley,,,
243,SS7,JS6,Rapid KL,3.106420683,101.5912029,JS,LRT3,11,Sky Blue,#88cffa,Klang Valley,,,
244,Glenmarie,JS7,Rapid KL,3.095852204,101.5891855,JS,LRT3,11,Sky Blue,#88cffa,Klang Valley,,,
245,Kerjaya,JS9,Rapid KL,3.082319047,101.5624195,JS,LRT3,11,Sky Blue,#88cffa,Klang Valley,,,
246,Stadium Shah Alam,JS10,Rapid KL,3.079356864,101.5480906,JS,LRT3,11,Sky Blue,#88cffa,Klang Valley,,,
247,Bandaraya Shah Alam,JS12,Rapid KL,3.069671102,101.5213147,JS,LRT3,11,Sky Blue,#88cffa,Klang Valley,,,
248,UiTM,JS14,Rapid KL,3.062419515,101.5014841,JS,LRT3,11,Sky Blue,#88cffa,Klang Valley,,,
249,Hospital Shah Alam,JS15,Rapid KL,3.067392682,101.4871655,JS,LRT3,11,Sky Blue,#88cffa,Klang Valley,,,
250,Bandar Baru Klang,JS17,Rapid KL,3.062554962,101.465626,JS,LRT3,11,Sky Blue,#88cffa,Klang Valley,,,
251,Pasar Besar Klang,JS18,Rapid KL,3.068467697,101.4507026,JS,LRT3,11,Sky Blue,#88cffa,Klang Valley,,,
252,Jalan Meru,JS19,Rapid KL,3.058985137,101.4519429,JS,LRT3,11,Sky Blue,#88cffa,Klang Valley,,,
253,Klang,JS20,Rapid KL,3.046913733,101.4469717,JS,LRT3,11,Sky Blue,#88cffa,Klang Valley,,,
254,Taman Selatan,JS21,Rapid KL,3.026450343,101.442469,JS,LRT3,11,Sky Blue,#88cffa,Klang Valley,,,
255,Sri Andalas,JS22,Rapid KL,3.015224548,101.4404414,JS,LRT3,11,Sky Blue,#88cffa,Klang Valley,,,
256,Klang Jaya,JS23,Rapid KL,3.005072142,101.4420808,JS,LRT3,11,Sky Blue,#88cffa,Klang Valley,,,
257,Bandar Bukit Tinggi,JS24,Rapid KL,2.993526149,101.4461748,JS,LRT3,11,Sky Blue,#88cffa,Klang Valley,,,
258,Johan Setia,JS26,Rapid KL,2.975435809,101.4607181,JS,LRT3,11,Sky Blue,#88cffa,Klang Valley,,,
259,Angrignon,G1,,45.446238,-73.60362,,Green Line,,Green,#5F8C55,Montreal,Boulevard Angrignon; Parc Angrignon,"Jean-Baptiste Angrignon, city councillor",03-09-1978
260,Monk,G2,,45.451051,-73.5932,,Green Line,,Green,#5F8C55,Montreal,Boulevard Monk,"James Monk, Quebec Attorney-General",03-09-1978
261,Jolicoeur,G3,,45.456914,-73.58206,,Green Line,,Green,#5F8C55,Montreal,Rue Jolicoeur,"Jean-Moïse Jolicoeur, parish priest",03-09-1978
262,Verdun,G4,,45.459359,-73.57183,,Green Line,,Green,#5F8C55,Montreal,Rue de Verdun; borough of Verdun,"Notre-Dame-de-Saverdun, France, hometown of Seigneur Zacharie Dupuis",03-09-1978
263,De L'Église,G5,,45.462874,-73.56696,,Green Line,,Green,#5F8C55,Montreal,Avenue de l'Église,Église Saint-Paul,03-09-1978
264,LaSalle,G6,,45.470906,-73.56614,,Green Line,,Green,#5F8C55,Montreal,Boulevard LaSalle,"Robert Cavelier de La Salle, French explorer, founder of Lachine",03-09-1978
265,Charlevoix,G7,,45.478395,-73.56937,,Green Line,,Green,#5F8C55,Montreal,Rue Charlevoix,"Pierre François Xavier de Charlevoix, French historian and explorer",03-09-1978
266,Lionel-Groulx,G8,,45.482757,-73.57993,,Green Line,,Green,#5F8C55,Montreal,Avenue Lionel-Groulx,"Fr. Lionel Groulx, Quebec historian",03-09-1978
267,Atwater,G9,,45.489679,-73.58631,,Green Line,,Green,#5F8C55,Montreal,Avenue Atwater,"Edwin Atwater, city councillor",14-10-1966
268,Guy–Concordia,G10,,45.495351,-73.57981,,Green Line,,Green,#5F8C55,Montreal,Rue Guy |Concordia University,"Étienne Guy, landowner |Concordia salus (Prosperity Through Concord), motto of Montreal",14-10-1966
269,Peel,G11,,45.500564,-73.57502,,Green Line,,Green,#5F8C55,Montreal,Rue Peel,"Robert Peel, British Prime Minister",14-10-1966
270,McGill,G12,,45.504069,-73.57153,,Green Line,,Green,#5F8C55,Montreal,McGill College Avenue; McGill University,"James McGill, Businessman",14-10-1966
271,Place-des-Arts,G13,,45.508037,-73.56834,,Green Line,,Green,#5F8C55,Montreal,Place des Arts cultural complex,Place des Arts cultural complex,14-10-1966
272,Saint-Laurent,G14,,45.510924,-73.56482,,Green Line,,Green,#5F8C55,Montreal,Boulevard Saint-Laurent,So-called as the old road to Saint-Laurent,14-10-1966
273,Berri–UQAM,G15,,45.514946,-73.56134,,Green Line,,Green,#5F8C55,Montreal,Rue Berri |Université du Québec à Montréal,"Simon Després dit Le Berry, land owner (1659) |Université du Québec à Montréal",14-10-1966
274,Beaudry,G18,,45.519546,-73.55719,,Green Line,,Green,#5F8C55,Montreal,Rue Beaudry,"Pierre Beaudry, landowner",21-12-1966
275,Papineau,G16,,45.524049,-73.55294,,Green Line,,Green,#5F8C55,Montreal,Avenue Papineau,"Joseph Papineau, Quebec politician (father of Louis-Joseph Papineau)",14-10-1966
276,Frontenac,G17,,45.532993,-73.55248,,Green Line,,Green,#5F8C55,Montreal,Rue Frontenac,"Louis de Buade de Frontenac, Governor General of New France",19-12-1966
277,Préfontaine,G19,,45.541717,-73.55422,,Green Line,,Green,#5F8C55,Montreal,Rue Préfontaine; Parc Raymond-Préfontaine,"Raymond-Fournier Préfontaine, mayor of Montreal",06-06-1976
278,Joliette,G20,,45.54689,-73.55113,,Green Line,,Green,#5F8C55,Montreal,Rue Joliette,"Barthélemy Joliette, founder of Joliette, Quebec",06-06-1976
279,Pie-IX,G21,,45.5542,-73.5515,,Green Line,,Green,#5F8C55,Montreal,Boulevard Pie-IX,Pope Pius IX,06-06-1976
280,Viau,G22,,45.561211,-73.54722,,Green Line,,Green,#5F8C55,Montreal,Rue Viau,"Charles-Théodore Viau, Quebec cookie magnate",06-06-1976
281,Assomption,G23,,45.569165,-73.54721,,Green Line,,Green,#5F8C55,Montreal,Boulevard de l'Assomption,Dogma of the Assumption of Mary,06-06-1976
282,Cadillac,G24,,45.576839,-73.54672,,Green Line,,Green,#5F8C55,Montreal,Rue de Cadillac,"Antoine Laumet de La Mothe, sieur de Cadillac, French explorer",06-06-1976
283,Langelier,G25,,45.58275,-73.54318,,Green Line,,Green,#5F8C55,Montreal,Boulevard Langelier,"François-Charles-Stanislas Langelier, mayor of Quebec City and Lieutenant Governor of Quebec",06-06-1976
284,Radisson,G26,,45.589156,-73.53942,,Green Line,,Green,#5F8C55,Montreal,Rue Radisson,"Pierre-Esprit Radisson, French explorer",06-06-1976
285,Honoré-Beaugrand,G27,,45.596409,-73.53542,,Green Line,,Green,#5F8C55,Montreal,Rue Honoré-Beaugrand,"Honoré Beaugrand, Quebec author and mayor of Montreal",06-06-1976
286,Côte-Vertu,O1,,45.514464,-73.6833,,Orange Line,,Orange,#D06D07,Montreal,Boulevard de la Côte-Vertu,"Notre-Dame-de-la-Vertu (Our Lady of Virtue), 18th-century name for the area",03-11-1986
287,Du Collège,O2,,45.508416,-73.67295,,Orange Line,,Orange,#D06D07,Montreal,Rue du Collège,"Collège Saint Laurent, former ecclesiastical college, now Cégep de Saint-Laurent, local cégep",09-01-1984
288,De La Savane,O3,,45.5003,-73.66161,,Orange Line,,Orange,#D06D07,Montreal,Rue de la Savane,savane — a savanna or Quebec French for swamp,09-01-1984
289,Namur,O4,,45.494891,-73.6529,,Orange Line,,Orange,#D06D07,Montreal,Rue Namur,"Namur, Belgium",09-01-1984
290,Plamondon,O5,,45.494376,-73.63783,,Orange Line,,Orange,#D06D07,Montreal,Avenue Plamondon,"Antoine Plamondon, Quebec painter, or Rodolphe Plamondon, Quebec lyric artist",29-01-1982
291,Côte-Sainte-Catherine,O6,,45.492307,-73.63286,,Orange Line,,Orange,#D06D07,Montreal,Chemin de la Côte-Sainte-Catherine,"Côte Sainte-Catherine, 18th century name for area of Outremont",04-01-1982
292,Snowdon,O7,,45.48695,-73.62741,,Orange Line,,Orange,#D06D07,Montreal,Rue Snowdon; Snowdon neighbourhood,Name of area's former landowner,7/09/1981 
293,Villa-Maria,O8,,45.47965,-73.61971,,Orange Line,,Orange,#D06D07,Montreal,Villa-Maria High School,"Latin form of ""Ville-Marie"", former name of Montreal",07-09-1981
294,Vendôme,O9,,45.473921,-73.60373,,Orange Line,,Orange,#D06D07,Montreal,Avenue de Vendôme,Likely from the French Dukes of Vendôme,07-09-1981
295,Place-Saint-Henri,O10,,45.477191,-73.58666,,Orange Line,,Orange,#D06D07,Montreal,Place Saint-Henri,"A parish church named for Saint Henry II, to commemorate Fr. Henri-Auguste Roux",28-04-1980
296,Lionel-Groulx,O11,,45.482097,-73.58071,,Orange Line,,Orange,#D06D07,Montreal,Avenue Lionel-Groulx,"Fr. Lionel Groulx, Quebec historian",28-04-1980
297,Georges-Vanier,O12,,45.488977,-73.57651,,Orange Line,,Orange,#D06D07,Montreal,Boulevard Georges-Vanier,"Georges Vanier, Governor General of Canada",28-04-1980
298,Lucien-L'Allier,O13,,45.494993,-73.57097,,Orange Line,,Orange,#D06D07,Montreal,Rue Lucien-L'Allier,"Lucien L'Allier, Quebec engineer, designer of the Metro",28-04-1980
299,Bonaventure,O14,,45.498269,-73.56709,,Orange Line,,Orange,#D06D07,Montreal,Place Bonaventure,"Gare Bonaventure, in turn for former Rue Bonaventure; St Bonaventure, Italian cleric",13-02-1967
300,Square-Victoria–OACI,O15,,45.502033,-73.56312,,Orange Line,,Orange,#D06D07,Montreal,Square Victoria |International Civil Aviation Organization,Queen Victoria |Nearby headquarters of ICAO,06-02-1967
301,Place-d'Armes,O16,,45.506063,-73.55976,,Orange Line,,Orange,#D06D07,Montreal,Place d'Armes,Historical rallying point for city's defenders,14-10-1966
302,Champ-de-Mars,O17,,45.510082,-73.55642,,Orange Line,,Orange,#D06D07,Montreal,Champ de Mars Park,"Common term for military exercise ground (Mars, god of war)",14-10-1966
303,Berri–UQAM,O18,,45.515757,-73.56178,,Orange Line,,Orange,#D06D07,Montreal,Rue Berri |Université du Québec à Montréal,"Simon Després dit Le Berry, land owner (1659) |Université du Québec à Montréal",14-10-1966
304,Sherbrooke,O19,,45.518654,-73.56809,,Orange Line,,Orange,#D06D07,Montreal,Rue Sherbrooke,"John Coape Sherbrooke, Governor General of British North America",14-10-1966
305,Mont-Royal,O20,,45.524718,-73.58144,,Orange Line,,Orange,#D06D07,Montreal,Avenue du Mont-Royal,Mount Royal,14-10-1966
306,Laurier,O21,,45.528224,-73.58861,,Orange Line,,Orange,#D06D07,Montreal,Avenue Laurier,"Wilfrid Laurier, Prime Minister of Canada",14-10-1966
307,Rosemont,O22,,45.531567,-73.59741,,Orange Line,,Orange,#D06D07,Montreal,Boulevard Rosemont; Rosemont neighbourhood,"Named by developer U.-H. Dandurand for his mother, née Rose Phillips",14-10-1966
308,Beaubien,O23,,45.535146,-73.60458,,Orange Line,,Orange,#D06D07,Montreal,Rue Beaubien,Prominent landowning family,14-10-1966
309,Jean-Talon,O24,,45.539233,-73.61383,,Orange Line,,Orange,#D06D07,Montreal,Rue Jean-Talon,"Jean Talon, intendant of New France",14/10/1966 
310,Jarry,O25,,45.543241,-73.62866,,Orange Line,,Orange,#D06D07,Montreal,Rue Jarry,"Stanislas Blénier dit Jarry père, landowner",14-10-1966
311,Crémazie,O26,,45.546086,-73.63883,,Orange Line,,Orange,#D06D07,Montreal,Boulevard Crémazie,"Octave Crémazie, Québécois poet",14-10-1966
312,Sauvé,O27,,45.550862,-73.6557,,Orange Line,,Orange,#D06D07,Montreal,Rue Sauvé,Name of a landowner,14-10-1966
313,Henri-Bourassa,O28,,45.554477,-73.66815,,Orange Line,,Orange,#D06D07,Montreal,Boulevard Henri-Bourassa,"Henri Bourassa, Quebec journalist and politician",14-10-1966
314,Cartier,O29,,45.559843,-73.68202,,Orange Line,,Orange,#D06D07,Montreal,Boulevard Cartier,"Sir George-Étienne Cartier Quebec politician, Father of Confederation",28-04-2007
315,De La Concorde,O30,,45.560685,-73.70956,,Orange Line,,Orange,#D06D07,Montreal,Boulevard de la Concorde,Place de la Concorde in Paris,28-04-2007
316,Montmorency,O31,,45.558286,-73.72153,,Orange Line,,Orange,#D06D07,Montreal,Collège Montmorency,"François de Montmorency-Laval, first Roman Catholic Bishop of Quebec and landowner of Île Jésus (Laval)",28-04-2007
317,Snowdon,B1,,45.486948,-73.62734,,Blue Line,,Blue,#3465B4,Montreal,Rue Snowdon; Snowdon neighbourhood,Name of area's former landowner,4/01/1988 
318,Côte-des-Neiges,B2,,45.496651,-73.62349,,Blue Line,,Blue,#3465B4,Montreal,Chemin de la Côte-des-Neiges; Côte-des-Neiges neighbourhood,Former Village of Côte-des-Neiges; name Notre-Dame-des-Neiges (Our Lady of the Snows) dates to 18th century,04-01-1988
319,Université-de-Montréal,B3,,45.503452,-73.61756,,Blue Line,,Blue,#3465B4,Montreal,Université de Montréal,Université de Montréal,04-01-1988
320,Édouard-Montpetit,B4,,45.510131,-73.61256,,Blue Line,,Blue,#3465B4,Montreal,Boulevard Édouard-Montpetit,"Édouard Montpetit, Quebec lawyer, economist and academic",04-01-1988
321,Outremont,B5,,45.520087,-73.6149,,Blue Line,,Blue,#3465B4,Montreal,Avenue Outremont; borough of Outremont,"Named for a prominent estate (Outremont means ""other side of the mountain"")",04-01-1988
322,Acadie,B6,,45.52322,-73.62377,,Blue Line,,Blue,#3465B4,Montreal,Boulevard de l'Acadie,Commemorates bicentennial of the expulsion of the Acadians,28-03-1988
323,Parc,B7,,45.530434,-73.62445,,Blue Line,,Blue,#3465B4,Montreal,Avenue du Parc,Mount Royal Park,15-06-1987
324,De Castelnau,B8,,45.535284,-73.62003,,Blue Line,,Blue,#3465B4,Montreal,Rue de Castelnau,"Édouard de Castelnau, French soldier",16-06-1986
325,Jean-Talon,B9,,45.539497,-73.61335,,Blue Line,,Blue,#3465B4,Montreal,Rue Jean-Talon,"Jean Talon, intendant of New France",16/06/1986 
326,Fabre,B10,,45.546727,-73.60792,,Blue Line,,Blue,#3465B4,Montreal,Rue Fabre,"Édouard-Charles Fabre, first Roman Catholic Bishop of Montreal",16-06-1986
327,D'Iberville,B11,,45.553078,-73.60227,,Blue Line,,Blue,#3465B4,Montreal,Rue d'Iberville,"Pierre Le Moyne d'Iberville, Quebec explorer, founder of Louisiana",16-06-1986
328,Saint-Michel,B12,,45.559813,-73.59994,,Blue Line,,Blue,#3465B4,Montreal,Boulevard Saint-Michel; neighbourhood of Saint-Michel,Saint Michael; long-standing name,16-06-1986
329,Berri–UQAM,Y1,,45.515027,-73.56126,,Yellow Line,,Yellow,#F1CE00,Montreal,Rue Berri |Université du Québec à Montréal,"Simon Després dit Le Berry, land owner (1659) |Université du Québec à Montréal",01-04-1967
330,Jean-Drapeau,Y2,,45.512435,-73.53317,,Yellow Line,,Yellow,#F1CE00,Montreal,Parc Jean-Drapeau,"Jean Drapeau, late ex-mayor of Montreal",01-04-1967
331,Longueuil–Université-de-Sherbrooke,Y3,,45.524966,-73.52197,,Yellow Line,,Yellow,#F1CE00,Montreal,"City of Longueuil |Université de Sherbrooke, Longueuil campus, in Édifice Saint-Charles","Probably for a town in Normandy |Université de Sherbrooke, Longueuil campus, in Édifice Saint-Charles",01-04-1967
332,Eunos MRT Station,EW7,,1.319778952,103.9032339,EWL,East West Line,,Green,#009530,Singapore,,,
333,Chinese Garden MRT Station,EW25,,1.342352821,103.7326244,EWL,East West Line,,Green,#009530,Singapore,,,
334,Khatib MRT Station,NS14,,1.41738337,103.83298,NSL,North South Line,,Red,#dc241f,Singapore,,,
335,Kranji MRT Station,NS7,,1.425177699,103.7621874,NSL,North South Line,,Red,#dc241f,Singapore,,,
336,Redhill MRT Station,EW18,,1.289562726,103.8168209,EWL,East West Line,,Green,#009530,Singapore,,,
337,Yew Tee MRT Station,NS5,,1.397535018,103.7474307,NSL,North South Line,,Red,#dc241f,Singapore,,,
338,Pioneer MRT Station,EW28,,1.337586882,103.6973586,EWL,East West Line,,Green,#009530,Singapore,,,
339,Commonwealth MRT Station,EW20,,1.302438735,103.7983136,EWL,East West Line,,Green,#009530,Singapore,,,
340,Paya Lebar MRT Station,EW8,,1.318112082,103.8930446,EWL,East West Line,,Green,#009530,Singapore,,,
341,Simei MRT Station,EW3,,1.343202895,103.9533387,EWL,East West Line,,Green,#009530,Singapore,,,
342,Tampines MRT Station,EW2,,1.353301356,103.9451175,EWL,East West Line,,Green,#009530,Singapore,,,
343,Admiralty MRT Station,NS10,,1.440585001,103.8009982,NSL,North South Line,,Red,#dc241f,Singapore,,,
344,Yishun MRT Station,NS13,,1.429443081,103.8350045,NSL,North South Line,,Red,#dc241f,Singapore,,,
345,Pasir Ris MRT Station,EW1,,1.372983774,103.9492348,EWL,East West Line,,Green,#009530,Singapore,,,
346,Clementi MRT Station,EW23,,1.314954492,103.7653168,EWL,East West Line,,Green,#009530,Singapore,,,
347,Aljunied MRT Station,EW9,,1.316432612,103.882893,EWL,East West Line,,Green,#009530,Singapore,,,
348,Expo MRT Station,CG1,,1.334549778,103.9615134,CAL,Changi Airport Branch Line,,Green,#009530,Singapore,,,
349,Choa Chu Kang MRT Station,NS4,,1.385361693,103.744367,NSL,North South Line,,Red,#dc241f,Singapore,,,
350,Jurong East MRT Station,EW24,,1.33315262,103.7423112,EWL,East West Line,,Green,#009530,Singapore,,,
351,Jurong East MRT Station,NS1,,1.33315262,103.7423112,NSL,North South Line,,Red,#dc241f,Singapore,,,
352,Queenstown MRT Station,EW19,,1.294860933,103.8058913,EWL,East West Line,,Green,#009530,Singapore,,,
353,Tuas Link MRT Station,EW33,,1.340463766,103.6369324,EWL,East West Line,,Green,#009530,Singapore,,,
354,Gul Circle MRT Station,EW30,,1.319505215,103.6605988,EWL,East West Line,,Green,#009530,Singapore,,,
355,Woodlands MRT Station,NS9,,1.436875128,103.7864999,NSL,North South Line,,Red,#dc241f,Singapore,,,
356,Tuas Crescent MRT Station,EW31,,1.321026553,103.6491245,EWL,East West Line,,Green,#009530,Singapore,,,
357,Kallang MRT Station,EW10,,1.31148891,103.8713766,EWL,East West Line,,Green,#009530,Singapore,,,
358,Tuas West Road MRT Station,EW32,,1.329989089,103.6396662,EWL,East West Line,,Green,#009530,Singapore,,,
359,Buona Vista MRT Station,EW21,,1.307183467,103.7902028,EWL,East West Line,,Green,#009530,Singapore,,,
360,Dover MRT Station,EW22,,1.311405293,103.7786522,EWL,East West Line,,Green,#009530,Singapore,,,
361,Sembawang MRT Station,NS11,,1.449050821,103.8200504,NSL,North South Line,,Red,#dc241f,Singapore,,,
362,Kembangan MRT Station,EW6,,1.321038249,103.9129282,EWL,East West Line,,Green,#009530,Singapore,,,
363,Bukit Batok MRT Station,NS2,,1.349034109,103.74959,NSL,North South Line,,Red,#dc241f,Singapore,,,
364,Ang Mo Kio MRT Station,NS16,,1.369933175,103.8495535,NSL,North South Line,,Red,#dc241f,Singapore,,,
365,Boon Lay MRT Station,EW27,,1.338604054,103.7060994,EWL,East West Line,,Green,#009530,Singapore,,,
366,Bukit Gombak MRT Station,NS3,,1.358761857,103.7519164,NSL,North South Line,,Red,#dc241f,Singapore,,,
367,Marsiling MRT Station,NS8,,1.432514421,103.77409,NSL,North South Line,,Red,#dc241f,Singapore,,,
368,Bedok MRT Station,EW5,,1.323979969,103.9299587,EWL,East West Line,,Green,#009530,Singapore,,,
369,Joo Koon MRT Station,EW29,,1.327717173,103.6784167,EWL,East West Line,,Green,#009530,Singapore,,,
370,Lakeside MRT Station,EW26,,1.344259249,103.7209802,EWL,East West Line,,Green,#009530,Singapore,,,
371,Tanah Merah MRT Station,EW4,,1.327187135,103.9463161,EWL,East West Line,,Green,#009530,Singapore,,,
372,Yio Chu Kang MRT Station,NS15,,1.381756046,103.8449439,NSL,North South Line,,Red,#dc241f,Singapore,,,
373,Oasis LRT Station,PE6,,1.402286677,103.9127036,PL,Punggol LRT,,Grey,#748477,Singapore,,,
374,Sam Kee LRT Station,PW1,,1.409612685,103.9048099,PL,Punggol LRT,,Grey,#748477,Singapore,,,
375,Farmway LRT Station,SW2,,1.397170196,103.8892882,SL,Sengkang LRT,,Grey,#748477,Singapore,,,
376,Kupang LRT Station,SW3,,1.398212828,103.881242,SL,Sengkang LRT,,Grey,#748477,Singapore,,,
377,Renjong LRT Station,SW8,,1.386723922,103.8905227,SL,Sengkang LRT,,Grey,#748477,Singapore,,,
378,Bukit Panjang LRT Station,BP6,,1.377909898,103.763034,BPL,Bukit Panjang LRT,,Grey,#0354a6,Singapore,,,
379,Fajar LRT Station,BP10,,1.384520796,103.7708268,BPL,Bukit Panjang LRT,,Grey,#748477,Singapore,,,
380,Punggol LRT Station,PTC,,1.405194701,103.9023911,PL,Punggol LRT,,Grey,#748477,Singapore,,,
381,Samudera LRT Station,PW4,,1.415901719,103.9021353,PL,Punggol LRT,,Grey,#748477,Singapore,,,
382,Nibong LRT Station,PW5,,1.411870458,103.9002935,PL,Punggol LRT,,Grey,#748477,Singapore,,,
383,Soo Teck LRT Station,PW7,,1.405088585,103.8971904,PL,Punggol LRT,,Grey,#748477,Singapore,,,
384,Kadaloor LRT Station,PE5,,1.399584853,103.9164619,PL,Punggol LRT,,Grey,#748477,Singapore,,,
385,Coral Edge LRT Station,PE3,,1.393909226,103.9125574,PL,Punggol LRT,,Grey,#748477,Singapore,,,
386,Thanggam LRT Station,SW4,,1.397318155,103.8756226,SL,Sengkang LRT,,Grey,#748477,Singapore,,,
387,Keat Hong LRT Station,BP3,,1.378602766,103.7490799,BPL,Bukit Panjang LRT,,Grey,#748477,Singapore,,,
388,Damai LRT Station,PE7,,1.405234836,103.9085809,PL,Punggol LRT,,Grey,#748477,Singapore,,,
389,Cove LRT Station,PE1,,1.399281985,103.9059403,PL,Punggol LRT,,Grey,#748477,Singapore,,,
390,Riviera LRT Station,PE4,,1.394524496,103.9161415,PL,Punggol LRT,,Grey,#748477,Singapore,,,
391,Senja LRT Station,BP13,,1.382692296,103.7623879,BPL,Bukit Panjang LRT,,Grey,#748477,Singapore,,,
392,Jelapang LRT Station,BP12,,1.386703025,103.7645235,BPL,Bukit Panjang LRT,,Grey,#748477,Singapore,,,
393,Petir LRT Station,BP7,,1.377750334,103.7666882,BPL,Bukit Panjang LRT,,Grey,#748477,Singapore,,,
394,Teck Whye LRT Station,BP4,,1.376684679,103.7537352,BPL,Bukit Panjang LRT,,Grey,#748477,Singapore,,,
395,Choa Chu Kang LRT Station,BP1,,1.38483636,103.7445797,BPL,Bukit Panjang LRT,,Grey,#748477,Singapore,,,
396,South View LRT Station,BP2,,1.380298287,103.7453173,BPL,Bukit Panjang LRT,,Grey,#748477,Singapore,,,
397,Layar LRT Station,SW6,,1.392079839,103.8800158,SL,Sengkang LRT,,Grey,#748477,Singapore,,,
398,Kangkar LRT Station,SE4,,1.383978902,103.9021539,SL,Sengkang LRT,,Grey,#748477,Singapore,,,
399,Meridian LRT Station,PE2,,1.396912053,103.9089277,PL,Punggol LRT,,Grey,#748477,Singapore,,,
400,Cheng Lim LRT Station,SW1,,1.396277631,103.8937792,SL,Sengkang LRT,,Grey,#748477,Singapore,,,
401,Punggol Point LRT Station,PW3,,1.41684852,103.9066284,PL,Punggol LRT,,Grey,#748477,Singapore,,,
402,Sumang LRT Station,PW6,,1.408452426,103.8985387,PL,Punggol LRT,,Grey,#748477,Singapore,,,
403,Fernvale LRT Station,SW5,,1.391885888,103.8762959,SL,Sengkang LRT,,Grey,#748477,Singapore,,,
404,Tongkang LRT Station,SW7,,1.389347953,103.8858287,SL,Sengkang LRT,,Grey,#748477,Singapore,,,
405,Pending LRT Station,BP8,,1.376142883,103.7712881,BPL,Bukit Panjang LRT,,Grey,#748477,Singapore,,,
406,Teck Lee LRT Station,PW2,,1.412770894,103.9065554,PL,Punggol LRT,,Grey,#748477,Singapore,,,
407,Bangkit LRT Station,BP9,,1.380017897,103.7726667,BPL,Bukit Panjang LRT,,Grey,#748477,Singapore,,,
408,Bakau LRT Station,SE3,,1.388092704,103.9054179,SL,Sengkang LRT,,Grey,#748477,Singapore,,,
409,Rumbia LRT Station,SE2,,1.391468497,103.9059522,SL,Sengkang LRT,,Grey,#748477,Singapore,,,
410,Compassvale LRT Station,SE1,,1.394493046,103.9004726,SL,Sengkang LRT,,Grey,#748477,Singapore,,,
411,Ten Mile Junction LRT Station,BP14,,1.380321008,103.760161,BPL,Bukit Panjang LRT,,Grey,#748477,Singapore,,,
412,Ranggung LRT Station,SE5,,1.384233561,103.897176,SL,Sengkang LRT,,Grey,#748477,Singapore,,,
413,Phoenix LRT Station,BP5,,1.378618844,103.7580559,BPL,Bukit Panjang LRT,,Grey,#748477,Singapore,,,
414,Segar LRT Station,BP11,,1.387772131,103.7696171,BPL,Bukit Panjang LRT,,Grey,#748477,Singapore,,,
415,Sengkang LRT Station,STC,,1.391609364,103.8954243,SL,Sengkang LRT,,Grey,#748477,Singapore,,,
416,Bras Basah MRT Station,CC2,,1.296861687,103.8506629,CCL,Circle Line,,Yellow,#FF9A00,Singapore,,,
417,Macpherson MRT Station,CC10,,1.326345372,103.8902718,CCL,Circle Line,,Yellow,#FF9A00,Singapore,,,
418,City Hall MRT Station,EW13,,1.292936243,103.852581,EWL,East West Line,,Green,#009530,Singapore,,,
419,City Hall MRT Station,NS25,,1.292936243,103.852581,NSL,North South Line,,Red,#dc241f,Singapore,,,
420,Tampines East MRT Station,DT33,,1.356191483,103.9546005,DTL,Downtown Line,,Blue,#0354a6,Singapore,,,
421,Tampines West MRT Station,DT31,,1.345515305,103.938408,DTL,Downtown Line,,Blue,#0354a6,Singapore,,,
422,Geylang Bahru MRT Station,DT24,,1.321505838,103.8718904,DTL,Downtown Line,,Blue,#0354a6,Singapore,,,
423,Bendemeer MRT Station,DT23,,1.313672233,103.8629702,DTL,Downtown Line,,Blue,#0354a6,Singapore,,,
424,Bencoolen MRT Station,DT21,,1.29886427,103.8503799,DTL,Downtown Line,,Blue,#0354a6,Singapore,,,
425,Harbourfront MRT Station,NE1,,1.26547264,103.821446,NEL,North East Line,,Purple,#9016b2,Singapore,,,
426,Harbourfront MRT Station,CC29,,1.26547264,103.821446,CCL,Circle Line,,Yellow,#FF9A00,Singapore,,,
427,Promenade MRT Station,DT15,,1.292891552,103.860846,DTL,Downtown Line,,Blue,#0354a6,Singapore,,,
428,Bugis MRT Station,DT14,,1.299550746,103.8568623,DTL,Downtown Line,,Blue,#0354a6,Singapore,,,
429,Kent Ridge MRT Station,CC24,,1.293462633,103.7846438,CCL,Circle Line,,Yellow,#FF9A00,Singapore,,,
430,Macpherson MRT Station,DT26,,1.326076883,103.8893356,DTL,Downtown Line,,Blue,#0354a6,Singapore,,,
431,Punggol MRT Station,NE17,,1.404546728,103.902052,NEL,North East Line,,Purple,#9016b2,Singapore,,,
432,Tanjong Pagar MRT Station,EW15,,1.276521247,103.8458611,EWL,East West Line,,Green,#009530,Singapore,,,
433,One-North MRT Station,CC23,,1.299759879,103.7874693,CCL,Circle Line,,Yellow,#FF9A00,Singapore,,,
434,Bishan MRT Station,CC15,,1.35130868,103.84915,CCL,Circle Line,,Yellow,#FF9A00,Singapore,,,
435,Stadium MRT Station,CC6,,1.30284063,103.8753395,CCL,Circle Line,,Yellow,#FF9A00,Singapore,,,
436,Bugis MRT Station,EW12,,1.300465076,103.8557007,EWL,East West Line,,Green,#009530,Singapore,,,
437,Somerset MRT Station,NS23,,1.300260055,103.8390737,NSL,North South Line,,Red,#dc241f,Singapore,,,
438,Orchard MRT Station,NS22,,1.303981012,103.8322417,NSL,North South Line,,Red,#dc241f,Singapore,,,
439,Jalan Besar MRT Station,DT22,,1.305403642,103.8554713,DTL,Downtown Line,,Blue,#0354a6,Singapore,,,
440,Bayfront MRT Station,DT16,,1.281873788,103.8590733,DTL,Downtown Line,,Blue,#0354a6,Singapore,,,
441,Bayfront MRT Station,CE1,,1.281873788,103.8590733,CCLe,Circle Line Extension,,Yellow,#FF9A00,Singapore,,,
442,Sengkang MRT Station,NE16,,1.391694626,103.8954664,NEL,North East Line,,Purple,#9016b2,Singapore,,,
443,Mountbatten MRT Station,CC7,,1.306201905,103.8825153,CCL,Circle Line,,Yellow,#FF9A00,Singapore,,,
444,Kovan MRT Station,NE13,,1.360179171,103.8850503,NEL,North East Line,,Purple,#9016b2,Singapore,,,
445,Fort Canning MRT Station,DT20,,1.292478928,103.8443255,DTL,Downtown Line,,Blue,#0354a6,Singapore,,,
446,Farrer Road MRT Station,CC20,,1.317510612,103.8075929,CCL,Circle Line,,Yellow,#FF9A00,Singapore,,,
447,Expo MRT Station,DT35,,1.335382137,103.9623407,DTL,Downtown Line,,Blue,#0354a6,Singapore,,,
448,Downtown MRT Station,DT17,,1.27944619,103.8528356,DTL,Downtown Line,,Blue,#0354a6,Singapore,,,
449,Buona Vista MRT Station,CC22,,1.306491669,103.7906645,CCL,Circle Line,,Yellow,#FF9A00,Singapore,,,
450,Esplanade MRT Station,CC3,,1.293321608,103.8554985,CCL,Circle Line,,Yellow,#FF9A00,Singapore,,,
451,Nicoll Highway MRT Station,CC5,,1.299766835,103.8636292,CCL,Circle Line,,Yellow,#FF9A00,Singapore,,,
452,Caldecott MRT Station,CC17,,1.337674508,103.8395281,CCL,Circle Line,,Yellow,#FF9A00,Singapore,,,
453,Marina Bay MRT Station,NS27,,1.276427355,103.8545925,NSL,North South Line,,Red,#dc241f,Singapore,,,
454,Marina Bay MRT Station,CE2,,1.276150637,103.8550886,CCLe,Circle Line Extension,,Yellow,#FF9A00,Singapore,,,
455,Labrador Park MRT Station,CC27,,1.272332732,103.8029471,CCL,Circle Line,,Yellow,#FF9A00,Singapore,,,
456,Chinatown MRT Station,NE4,,1.284359578,103.8434242,NEL,North East Line,,Purple,#9016b2,Singapore,,,
457,Chinatown MRT Station,DT19,,1.284748969,103.8444484,DTL,Downtown Line,,Blue,#0354a6,Singapore,,,
458,Newton MRT Station,DT11,,1.313607102,103.8378098,DTL,Downtown Line,,Blue,#0354a6,Singapore,,,
459,Tan Kah Kee MRT Station,DT8,,1.325883209,103.8073292,DTL,Downtown Line,,Blue,#0354a6,Singapore,,,
460,Tiong Bahru MRT Station,EW17,,1.286193393,103.827021,EWL,East West Line,,Green,#009530,Singapore,,,
461,Hillview MRT Station,DT3,,1.362344869,103.7674369,DTL,Downtown Line,,Blue,#0354a6,Singapore,,,
462,King Albert Park MRT Station,DT6,,1.335665121,103.7838201,DTL,Downtown Line,,Blue,#0354a6,Singapore,,,
463,Mattar MRT Station,DT25,,1.326876715,103.8832341,DTL,Downtown Line,,Blue,#0354a6,Singapore,,,
464,Ubi MRT Station,DT27,,1.329956826,103.8992348,DTL,Downtown Line,,Blue,#0354a6,Singapore,,,
465,Beauty World MRT Station,DT5,,1.341223176,103.77581,DTL,Downtown Line,,Blue,#0354a6,Singapore,,,
466,Kaki Bukit MRT Station,DT28,,1.334967302,103.9084393,DTL,Downtown Line,,Blue,#0354a6,Singapore,,,
467,Tampines MRT Station,DT32,,1.355077429,103.9430298,DTL,Downtown Line,,Blue,#0354a6,Singapore,,,
468,Bedok North MRT Station,DT29,,1.334742117,103.9179554,DTL,Downtown Line,,Blue,#0354a6,Singapore,,,
469,Dhoby Ghaut MRT Station,NS24,,1.298701307,103.8461119,NSL,North South Line,,Red,#dc241f,Singapore,,,
470,Serangoon MRT Station,CC13,,1.350595256,103.8723572,CCL,Circle Line,,Yellow,#FF9A00,Singapore,,,
471,Woodleigh MRT Station,NE11,,1.339190046,103.8708081,NEL,North East Line,,Purple,#9016b2,Singapore,,,
472,Novena MRT Station,NS20,,1.320440791,103.8438228,NSL,North South Line,,Red,#dc241f,Singapore,,,
473,Serangoon MRT Station,NE12,,1.349707875,103.8735637,NEL,North East Line,,Purple,#9016b2,Singapore,,,
474,Bedok Reservoir MRT Station,DT30,,1.33660783,103.9322077,DTL,Downtown Line,,Blue,#0354a6,Singapore,,,
475,Marina South Pier MRT Station,NS28,,1.271336711,103.8628525,NSL,North South Line,,Red,#dc241f,Singapore,,,
476,Farrer Park MRT Station,NE8,,1.31235984,103.8541717,NEL,North East Line,,Purple,#9016b2,Singapore,,,
477,Paya Lebar MRT Station,CC9,,1.317430268,103.8921633,CCL,Circle Line,,Yellow,#FF9A00,Singapore,,,
478,Bartley MRT Station,CC12,,1.342828338,103.8797462,CCL,Circle Line,,Yellow,#FF9A00,Singapore,,,
479,Dakota MRT Station,CC8,,1.30838264,103.888648,CCL,Circle Line,,Yellow,#FF9A00,Singapore,,,
480,Pasir Panjang MRT Station,CC26,,1.276213523,103.7913607,CCL,Circle Line,,Yellow,#FF9A00,Singapore,,,
481,Outram Park MRT Station,NE3,,1.28140498,103.839125,NEL,North East Line,,Purple,#9016b2,Singapore,,,
482,Clarke Quay MRT Station,NE5,,1.288386024,103.8465519,NEL,North East Line,,Purple,#9016b2,Singapore,,,
483,Bishan MRT Station,NS17,,1.350838988,103.8481398,NSL,North South Line,,Red,#dc241f,Singapore,,,
484,Botanic Gardens MRT Station,DT9,,1.322423979,103.8161362,DTL,Downtown Line,,Blue,#0354a6,Singapore,,,
485,Marymount MRT Station,CC16,,1.348707263,103.8394214,CCL,Circle Line,,Yellow,#FF9A00,Singapore,,,
486,Haw Par Villa MRT Station,CC25,,1.282542157,103.7818234,CCL,Circle Line,,Yellow,#FF9A00,Singapore,,,
487,Lorong Chuan MRT Station,CC14,,1.351612171,103.8641434,CCL,Circle Line,,Yellow,#FF9A00,Singapore,,,
488,Lavender MRT Station,EW11,,1.30735702,103.8628215,EWL,East West Line,,Green,#009530,Singapore,,,
489,Dhoby Ghaut MRT Station,NE6,,1.299705459,103.8454851,NEL,North East Line,,Purple,#9016b2,Singapore,,,
490,Dhoby Ghaut MRT Station,CC1,,1.298842816,103.8462358,CCL,Circle Line,,Yellow,#FF9A00,Singapore,,,
491,Tai Seng MRT Station,CC11,,1.335433322,103.88818,CCL,Circle Line,,Yellow,#FF9A00,Singapore,,,
492,Rochor MRT Station,DT13,,1.306800025,103.8496427,DTL,Downtown Line,,Blue,#0354a6,Singapore,,,
493,Little India MRT Station,DT12,,1.303916484,103.8524167,DTL,Downtown Line,,Blue,#0354a6,Singapore,,,
494,Little India MRT Station,NE7,,1.307198223,103.8485807,NEL,North East Line,,Purple,#9016b2,Singapore,,,
495,Stevens MRT Station,DT10,,1.320065557,103.8260263,DTL,Downtown Line,,Blue,#0354a6,Singapore,,,
496,Bukit Panjang MRT Station,DT1,,1.379002117,103.7615559,DTL,Downtown Line,,Blue,#0354a6,Singapore,,,
497,Cashew MRT Station,DT2,,1.369369831,103.764714,DTL,Downtown Line,,Blue,#0354a6,Singapore,,,
498,Sixth Avenue MRT Station,DT7,,1.330786387,103.7972561,DTL,Downtown Line,,Blue,#0354a6,Singapore,,,
499,Toa Payoh MRT Station,NS19,,1.332628987,103.8474979,NSL,North South Line,,Red,#dc241f,Singapore,,,
500,Woodlands South MRT Station,TE3,,1.4272,103.7943,TEL,Thomson-East Coast Line,,Brown,#734538,Singapore,,,
501,Potong Pasir MRT Station,NE10,,1.331379525,103.869046,NEL,North East Line,,Purple,#9016b2,Singapore,,,
502,Hougang MRT Station,NE14,,1.371292292,103.8923636,NEL,North East Line,,Purple,#9016b2,Singapore,,,
503,Boon Keng MRT Station,NE9,,1.319395706,103.861679,NEL,North East Line,,Purple,#9016b2,Singapore,,,
504,Upper Changi MRT Station,DT34,,1.341737484,103.9614367,DTL,Downtown Line,,Blue,#0354a6,Singapore,,,
505,Changi Airport MRT Station,CG2,,1.357314545,103.9883212,CAL,Changi Airport Branch Line,,Green,#009530,Singapore,,,
506,Woodlands MRT Station,TE2,,1.43594,103.78794,TEL,Thomson-East Coast Line,,Brown,#734538,Singapore,,,
507,Braddell MRT Station,NS18,,1.340471684,103.8467942,NSL,North South Line,,Red,#dc241f,Singapore,,,
508,Buangkok MRT Station,NE15,,1.382877858,103.8931042,NEL,North East Line,,Purple,#9016b2,Singapore,,,
509,Promenade MRT Station,CC4,,1.293218051,103.8609921,CCL,Circle Line,,Yellow,#FF9A00,Singapore,,,
510,Botanic Gardens MRT Station,CC19,,1.322110193,103.8149876,CCL,Circle Line,,Yellow,#FF9A00,Singapore,,,
511,Raffles Place MRT Station,EW14,,1.284125611,103.8514572,EWL,East West Line,,Green,#009530,Singapore,,,
512,Raffles Place MRT Station,NS26,,1.284125611,103.8514572,NSL,North South Line,,Red,#dc241f,Singapore,,,
513,Holland Village MRT Station,CC21,,1.31183479,103.7962016,CCL,Circle Line,,Yellow,#FF9A00,Singapore,,,
514,Outram Park MRT Station,EW16,,1.279764543,103.8395732,EWL,East West Line,,Green,#009530,Singapore,,,
515,Telok Blangah MRT Station,CC28,,1.270753211,103.8097544,CCL,Circle Line,,Yellow,#FF9A00,Singapore,,,
516,Telok Ayer MRT Station,DT18,,1.282289536,103.8482991,DTL,Downtown Line,,Blue,#0354a6,Singapore,,,
517,Newton MRT Station,NS21,,1.3123201,103.8379841,NSL,North South Line,,Red,#dc241f,Singapore,,,
518,Woodlands MRT North Station,TE1,,1.4485,103.7855,TEL,Thomson-East Coast Line,,Brown,#734538,Singapore,,,
519,Springleaf MRT Station,TE4,,1.3981,103.8181,TEL,Thomson-East Coast Line,,Brown,#734538,Singapore,,,
520,Lentor MRT Station,TE5,,1.3846,103.8367,TEL,Thomson-East Coast Line,,Brown,#734538,Singapore,,,
521,Mayflower MRT Station,TE6,,1.372,103.8368,TEL,Thomson-East Coast Line,,Brown,#734538,Singapore,,,
522,Bright Hill MRT Station,TE7,,1.3637,103.8335,TEL,Thomson-East Coast Line,,Brown,#734538,Singapore,,,
523,Upper Thomson MRT Station,TE8,,1.35461,103.83253,TEL,Thomson-East Coast Line,,Brown,#734538,Singapore,,,
524,Caldecott MRT Station,TE9,,1.3373,103.8396,TEL,Thomson-East Coast Line,,Brown,#734538,Singapore,,,
525,Stevens MRT Station,TE11,,1.3199,103.8262,TEL,Thomson-East Coast Line,,Brown,#734538,Singapore,,,
526,Napier MRT Station,TE12,,1.3066,103.819,TEL,Thomson-East Coast Line,,Brown,#734538,Singapore,,,
527,Orchard Boulevard MRT Station,TE13,,1.3029,103.8235,TEL,Thomson-East Coast Line,,Brown,#734538,Singapore,,,
528,Orchard MRT Station,TE14,,1.303,103.8314,TEL,Thomson-East Coast Line,,Brown,#734538,Singapore,,,
529,Great World MRT Station,TE15,,1.2946,103.8336,TEL,Thomson-East Coast Line,,Brown,#734538,Singapore,,,
530,Havelock MRT Station,TE16,,1.2885,103.8335,TEL,Thomson-East Coast Line,,Brown,#734538,Singapore,,,
531,Outram Park MRT Station,TE17,,1.2804,103.8401,TEL,Thomson-East Coast Line,,Brown,#734538,Singapore,,,
532,Maxwell MRT Station,TE18,,1.2806,103.844,TEL,Thomson-East Coast Line,,Brown,#734538,Singapore,,,
533,Shenton Way MRT Station,TE19,,1.27754,103.85077,TEL,Thomson-East Coast Line,,Brown,#734538,Singapore,,,
534,Marina Bay MRT Station,TE20,,1.27529,103.85481,TEL,Thomson-East Coast Line,,Brown,#734538,Singapore,,,
535,Gardens By The Bay • Taman Di Pesisiran MRT Station,TE22,,1.279,103.8678,TEL,Thomson-East Coast Line,,Brown,#734538,Singapore,,,
